[
  {
    "id_station": "BL01",
    "name": "สถานีท่าพระ",
    "location": "ยกระดับเหนือแยกท่าพระ ซึ่งเป็นจุดตัดระหว่างถนนจรัญสนิทวงศ์ ถนนเพชรเกษม และถนนรัชดาภิเษกฝั่งใต้",
    "id_mrtline": 1,
    "mrtline": "เส้นทางรถไฟฟ้ามหานคร สายสีน้ำเงิน",
    "station_co": null,
    "dcode": 1016,
    "dname": "บางกอกใหญ่",
    "lat": 13.7296593,
    "lng": 100.4740885
  },
  {
    "id_station": "BL02",
    "name": "สถานีจรัญฯ 13",
    "location": "ถนนจรัญสนิทวงศ์ บริเวณแยกพาณิชยการธนบุรี",
    "id_mrtline": 1,
    "mrtline": "เส้นทางรถไฟฟ้ามหานคร สายสีน้ำเงิน",
    "station_co": null,
    "dcode": 1016,
    "dname": "บางกอกใหญ่",
    "lat": 13.74005671,
    "lng": 100.4707321
  },
  {
    "id_station": "BL03",
    "name": "สถานีไฟฉาย",
    "location": "ถนนจรัญสนิทวงศ์ บริเวณด้านเหนือของแยกไฟฉาย",
    "id_mrtline": 1,
    "mrtline": "เส้นทางรถไฟฟ้ามหานคร สายสีน้ำเงิน",
    "station_co": null,
    "dcode": 1020,
    "dname": "บางกอกน้อย",
    "lat": 13.7557305,
    "lng": 100.4693411
  },
  {
    "id_station": "BL04",
    "name": "สถานีบางขุนนนท์",
    "location": "ถนนจรัญสนิทวงศ์ ระหว่างสี่แยกบางขุนนนท์",
    "id_mrtline": 1,
    "mrtline": "เส้นทางรถไฟฟ้ามหานคร สายสีน้ำเงิน",
    "station_co": null,
    "dcode": 1020,
    "dname": "บางกอกน้อย",
    "lat": 13.76334485,
    "lng": 100.4733652
  },
  {
    "id_station": "BL05",
    "name": "สถานีบางยี่ขัน",
    "location": "ถนนจรัญสนิทวงศ์ หน้าปากซอยจรัญสนิทวงศ์ 42 บริเวณหน้าตลาดอินดี้ปิ่นเกล้า",
    "id_mrtline": 1,
    "mrtline": "เส้นทางรถไฟฟ้ามหานคร สายสีน้ำเงิน",
    "station_co": null,
    "dcode": 1025,
    "dname": "บางพลัด",
    "lat": 13.77747388,
    "lng": 100.4853472
  },
  {
    "id_station": "BL06",
    "name": "สถานีสิรินธร",
    "location": "ยกระดับเหนือถนนจรัญสนิทวงศ์ กรุงเทพมหานคร",
    "id_mrtline": 1,
    "mrtline": "เส้นทางรถไฟฟ้ามหานคร สายสีน้ำเงิน",
    "station_co": null,
    "dcode": 1025,
    "dname": "บางพลัด",
    "lat": 13.783808,
    "lng": 100.4932301
  },
  {
    "id_station": "BL07",
    "name": "สถานีบางพลัด",
    "location": "ถนนจรัญสนิทวงศ์ บริเวณด้านหน้าธนาคารกสิกรไทย สาขาบางพลัด",
    "id_mrtline": 1,
    "mrtline": "เส้นทางรถไฟฟ้ามหานคร สายสีน้ำเงิน",
    "station_co": null,
    "dcode": 1025,
    "dname": "บางพลัด",
    "lat": 13.79238778,
    "lng": 100.5048644
  },
  {
    "id_station": "BL08",
    "name": "สถานีบางอ้อ",
    "location": "ถนนจรัญสนิทวงศ์บริเวณซอยจรัญสนิทวงศ์ 88",
    "id_mrtline": 1,
    "mrtline": "เส้นทางรถไฟฟ้ามหานคร สายสีน้ำเงิน",
    "station_co": null,
    "dcode": 1025,
    "dname": "บางพลัด",
    "lat": 13.79899246,
    "lng": 100.5097903
  },
  {
    "id_station": "BL09",
    "name": "สถานีบางโพ",
    "location": "ถนนประชาราษฎร์ สาย 2 บริเวณสี่แยกบางโพ",
    "id_mrtline": 1,
    "mrtline": "เส้นทางรถไฟฟ้ามหานคร สายสีน้ำเงิน",
    "station_co": null,
    "dcode": 1029,
    "dname": "บางซื่อ",
    "lat": 13.80640723,
    "lng": 100.5211039
  },
  {
    "id_station": "BL11",
    "name": "สถานีบางซื่อ",
    "location": "ใกล้สถานีรถไฟบางซื่อ ถนนเทอดดำริ",
    "id_mrtline": 1,
    "mrtline": "เส้นทางรถไฟฟ้ามหานคร สายสีน้ำเงิน",
    "station_co": null,
    "dcode": 1030,
    "dname": "จตุจักร",
    "lat": 13.80235091,
    "lng": 100.5410375
  },
  {
    "id_station": "BL12",
    "name": "สถานีกำแพงเพชร",
    "location": "ถนนกำแพงเพชร บริเวณสามแยกกำแพงเพชร 2 หน้าตลาด อ.ต.ก. และตลาดนัดจตุจักร",
    "id_mrtline": 1,
    "mrtline": "เส้นทางรถไฟฟ้ามหานคร สายสีน้ำเงิน",
    "station_co": null,
    "dcode": 1030,
    "dname": "จตุจักร",
    "lat": 13.79793257,
    "lng": 100.547936
  },
  {
    "id_station": "BL13",
    "name": "สถานีสวนจตุจักร",
    "location": "ถนนพหลโยธิน ฝั่งทิศตะวันตก ในอาณาเขตสวนจตุจักรด้านทิศใต้ ตรงข้ามศูนย์ซ่อมบำรุงหมอชิต",
    "id_mrtline": 1,
    "mrtline": "เส้นทางรถไฟฟ้ามหานคร สายสีน้ำเงิน",
    "station_co": null,
    "dcode": 1030,
    "dname": "จตุจักร",
    "lat": 13.80295124,
    "lng": 100.5533613
  },
  {
    "id_station": "BL14",
    "name": "สถานีพหลโยธิน",
    "location": "บริเวณห้าแยกลาดพร้าว จุดบรรจบถนนลาดพร้าว, ถนนพหลโยธิน และถนนวิภาวดีรังสิต",
    "id_mrtline": 1,
    "mrtline": "เส้นทางรถไฟฟ้ามหานคร สายสีน้ำเงิน",
    "station_co": null,
    "dcode": 1030,
    "dname": "จตุจักร",
    "lat": 13.81296882,
    "lng": 100.5615673
  },
  {
    "id_station": "BL15",
    "name": "สถานีลาดพร้าว",
    "location": "ถนนลาดพร้าว บริเวณทิศตะวันตกของสี่แยกรัชดา-ลาดพร้าว จุดบรรจบถนนลาดพร้าวและถนนรัชดาภิเษก",
    "id_mrtline": 1,
    "mrtline": "เส้นทางรถไฟฟ้ามหานคร สายสีน้ำเงิน",
    "station_co": null,
    "dcode": 1030,
    "dname": "จตุจักร",
    "lat": 13.8065239,
    "lng": 100.572901
  },
  {
    "id_station": "BL16",
    "name": "สถานีรัชดาภิเษก",
    "location": "ถนนรัชดาภิเษก บริเวณทิศเหนือของปากซอยโชคชัยร่วมมิตร และสะพานข้ามคลองบางซื่อ",
    "id_mrtline": 1,
    "mrtline": "เส้นทางรถไฟฟ้ามหานคร สายสีน้ำเงิน",
    "station_co": null,
    "dcode": 1026,
    "dname": "ดินแดง",
    "lat": 13.79895711,
    "lng": 100.5744781
  },
  {
    "id_station": "BL17",
    "name": "สถานีสุทธิสาร",
    "location": "ถนนรัชดาภิเษก บริเวณกลางทางแยกรัชดา-สุทธิสาร",
    "id_mrtline": 1,
    "mrtline": "เส้นทางรถไฟฟ้ามหานคร สายสีน้ำเงิน",
    "station_co": null,
    "dcode": 1026,
    "dname": "ดินแดง",
    "lat": 13.78945997,
    "lng": 100.5740167
  },
  {
    "id_station": "BL18",
    "name": "สถานีห้วยขวาง",
    "location": "ถนนรัชดาภิเษก บริเวณกลางแยกห้วยขวาง",
    "id_mrtline": 1,
    "mrtline": "เส้นทางรถไฟฟ้ามหานคร สายสีน้ำเงิน",
    "station_co": null,
    "dcode": 1026,
    "dname": "ดินแดง",
    "lat": 13.77869774,
    "lng": 100.5734915
  },
  {
    "id_station": "BL19",
    "name": "สถานีศูนย์วัฒนธรรมแห่งประเทศไทย",
    "location": "ใต้ถนนรัชดาภิเษก บริเวณด้านหน้าศูนย์การค้าเอสพลานาด รัชดาภิเษก",
    "id_mrtline": 1,
    "mrtline": "เส้นทางรถไฟฟ้ามหานคร สายสีน้ำเงิน",
    "station_co": null,
    "dcode": 1026,
    "dname": "ดินแดง",
    "lat": 13.76630887,
    "lng": 100.5700702
  },
  {
    "id_station": "BL20",
    "name": "สถานีพระราม 9",
    "location": "ถนนรัชดาภิเษก บริเวณทิศเหนือของสี่แยกพระราม 9",
    "id_mrtline": 1,
    "mrtline": "เส้นทางรถไฟฟ้ามหานคร สายสีน้ำเงิน",
    "station_co": null,
    "dcode": 1026,
    "dname": "ดินแดง",
    "lat": 13.75784279,
    "lng": 100.5652421
  },
  {
    "id_station": "BL21",
    "name": "สถานีเพชรบุรี",
    "location": "ถนนรัชดาภิเษก (อโศก-ดินแดง) บริเวณทิศเหนือของสี่แยกอโศก-เพชรบุรี",
    "id_mrtline": 1,
    "mrtline": "เส้นทางรถไฟฟ้ามหานคร สายสีน้ำเงิน",
    "station_co": null,
    "dcode": 1037,
    "dname": "ราชเทวี",
    "lat": 13.74919525,
    "lng": 100.5633537
  },
  {
    "id_station": "BL22",
    "name": "สถานีสุขุมวิท",
    "location": "ถนนอโศกมนตรี หน้าตลาดอโศก ด้านทิศเหนือของสี่แยกอโศกมนตรี",
    "id_mrtline": 1,
    "mrtline": "เส้นทางรถไฟฟ้ามหานคร สายสีน้ำเงิน",
    "station_co": null,
    "dcode": 1039,
    "dname": "วัฒนา",
    "lat": 13.73738427,
    "lng": 100.5614168
  },
  {
    "id_station": "BL23",
    "name": "สถานีศูนย์การประชุมแห่งชาติสิริกิติ์",
    "location": "ถนนรัชดาภิเษกตัดใหม่ ด้านหน้าศูนย์การประชุมแห่งชาติสิริกิติ์",
    "id_mrtline": 1,
    "mrtline": "เส้นทางรถไฟฟ้ามหานคร สายสีน้ำเงิน",
    "station_co": null,
    "dcode": 1033,
    "dname": "คลองเตย",
    "lat": 13.72262377,
    "lng": 100.5599045
  },
  {
    "id_station": "BL24",
    "name": "สถานีคลองเตย",
    "location": "ถนนพระรามที่ 4 ด้านหน้าสำนักงานการไฟฟ้านครหลวงเขตคลองเตย",
    "id_mrtline": 1,
    "mrtline": "เส้นทางรถไฟฟ้ามหานคร สายสีน้ำเงิน",
    "station_co": null,
    "dcode": 1033,
    "dname": "คลองเตย",
    "lat": 13.72229036,
    "lng": 100.5540033
  },
  {
    "id_station": "BL25",
    "name": "สถานีลุมพินี",
    "location": "ถนนพระรามที่ 4 บริเวณทิศตะวันออกของสี่แยกวิทยุ จุดบรรจบของถนนวิทยุ และถนนสาทรเหนือ-ใต้",
    "id_mrtline": 1,
    "mrtline": "เส้นทางรถไฟฟ้ามหานคร สายสีน้ำเงิน",
    "station_co": null,
    "dcode": 1007,
    "dname": "ปทุมวัน",
    "lat": 13.7257317,
    "lng": 100.5457784
  },
  {
    "id_station": "BL26",
    "name": "สถานีสีลม",
    "location": "ใต้ผิวถนนพระรามที่ 4 บริเวณสี่แยกศาลาแดงด้านทิศตะวันออก หน้าสวนลุมพินี",
    "id_mrtline": 1,
    "mrtline": "เส้นทางรถไฟฟ้ามหานคร สายสีน้ำเงิน",
    "station_co": null,
    "dcode": 1007,
    "dname": "ปทุมวัน",
    "lat": 13.72928274,
    "lng": 100.5373135
  },
  {
    "id_station": "BL27",
    "name": "สถานีสามย่าน",
    "location": "ถนนพระรามที่ 4 บริเวณสี่แยกสามย่านด้านทิศตะวันออกหน้าวัดหัวลำโพง",
    "id_mrtline": 1,
    "mrtline": "เส้นทางรถไฟฟ้ามหานคร สายสีน้ำเงิน",
    "station_co": null,
    "dcode": 1007,
    "dname": "ปทุมวัน",
    "lat": 13.73222813,
    "lng": 100.5302684
  },
  {
    "id_station": "BL28",
    "name": "สถานีหัวลำโพง",
    "location": "ใต้ถนนพระรามที่ 4 บริเวณแยกหัวลำโพง จุดบรรจบ ถนนพระรามที่ 4, ถนนรองเมือง",
    "id_mrtline": 1,
    "mrtline": "เส้นทางรถไฟฟ้ามหานคร สายสีน้ำเงิน",
    "station_co": null,
    "dcode": 1007,
    "dname": "ปทุมวัน",
    "lat": 13.73755186,
    "lng": 100.5171633
  },
  {
    "id_station": "BL29",
    "name": "สถานีวัดมังกร",
    "location": "ถนนเจริญกรุง บริเวณสี่แยกแปลงนาม",
    "id_mrtline": 1,
    "mrtline": "เส้นทางรถไฟฟ้ามหานคร สายสีน้ำเงิน",
    "station_co": null,
    "dcode": 1008,
    "dname": "ป้อมปราบศัตรูพ่าย",
    "lat": 13.74228753,
    "lng": 100.5099535
  },
  {
    "id_station": "BL30",
    "name": "สถานีสามยอด",
    "location": "ถนนเจริญกรุง ตั้งแต่บริเวณแยกสามยอด",
    "id_mrtline": 1,
    "mrtline": "เส้นทางรถไฟฟ้ามหานคร สายสีน้ำเงิน",
    "station_co": null,
    "dcode": 1001,
    "dname": "พระนคร",
    "lat": 13.74705362,
    "lng": 100.5021701
  },
  {
    "id_station": "BL31",
    "name": "สถานีสนามไชย",
    "location": "ถนนสนามไชย ด้านทิศเหนือของแยกสะพานเจริญรัช 31 หรือปากคลองตลาด",
    "id_mrtline": 1,
    "mrtline": "เส้นทางรถไฟฟ้ามหานคร สายสีน้ำเงิน",
    "station_co": null,
    "dcode": 1001,
    "dname": "พระนคร",
    "lat": 13.74434176,
    "lng": 100.4947367
  },
  {
    "id_station": "BL32",
    "name": "สถานีอิสรภาพ",
    "location": "ระหว่างซอยอิสรภาพ 23 (ซอยวัดราชสิทธาราม) และซอยอิสรภาพ 34 (ซอยพิเศษสุข)",
    "id_mrtline": 1,
    "mrtline": "เส้นทางรถไฟฟ้ามหานคร สายสีน้ำเงิน",
    "station_co": null,
    "dcode": 1016,
    "dname": "บางกอกใหญ่",
    "lat": 13.73831268,
    "lng": 100.4857197
  },
  {
    "id_station": "BL33",
    "name": "สถานีบางไผ่",
    "location": "ถนนเพชรเกษม ระหว่างซอยเพชรเกษม 19 กับซอยเพชรเกษม 19/2 บริเวณหน้าโรงพยาบาลบางไผ่",
    "id_mrtline": 1,
    "mrtline": "เส้นทางรถไฟฟ้ามหานคร สายสีน้ำเงิน",
    "station_co": null,
    "dcode": 1022,
    "dname": "ภาษีเจริญ",
    "lat": 13.72473175,
    "lng": 100.4651442
  },
  {
    "id_station": "BL34",
    "name": "สถานีบางหว้า",
    "location": "ถนนราชพฤกษ์ บริเวณด้านข้างสะพานยกระดับข้ามทางแยกต่างระดับเพชรเกษม",
    "id_mrtline": 1,
    "mrtline": "เส้นทางรถไฟฟ้ามหานคร สายสีน้ำเงิน",
    "station_co": null,
    "dcode": 1022,
    "dname": "ภาษีเจริญ",
    "lat": 13.72070709,
    "lng": 100.4578516
  },
  {
    "id_station": "BL35",
    "name": "สถานีเพชรเกษม48",
    "location": "ถนนเพชรเกษม ระหว่างซอยเพชรเกษม 31/1 และ 46/2",
    "id_mrtline": 1,
    "mrtline": "เส้นทางรถไฟฟ้ามหานคร สายสีน้ำเงิน",
    "station_co": null,
    "dcode": 1022,
    "dname": "ภาษีเจริญ",
    "lat": 13.71541044,
    "lng": 100.4454476
  },
  {
    "id_station": "BL36",
    "name": "สถานีภาษีเจริญ",
    "location": "ถนนเพชรเกษม หน้าศูนย์สรรพสินค้าซีคอนบางแค",
    "id_mrtline": 1,
    "mrtline": "เส้นทางรถไฟฟ้ามหานคร สายสีน้ำเงิน",
    "station_co": null,
    "dcode": 1022,
    "dname": "ภาษีเจริญ",
    "lat": 13.7128901,
    "lng": 100.4342906
  },
  {
    "id_station": "BL37",
    "name": "สถานีบางแค",
    "location": "ถนนเพชรเกษม ระหว่างซอยเพชรเกษม 62/3 กับซอยเพชรเกษม 62/4",
    "id_mrtline": 1,
    "mrtline": "เส้นทางรถไฟฟ้ามหานคร สายสีน้ำเงิน",
    "station_co": null,
    "dcode": 1040,
    "dname": "บางแค",
    "lat": 13.71189286,
    "lng": 100.4222739
  },
  {
    "id_station": "BL38",
    "name": "สถานีหลักสอง",
    "location": "ถนนเพชรเกษม อยู่ระหว่างซอยเพชรเกษม 80 และทางแยกต่างระดับเพชรเกษม ตัดกับถนนกาญจนาภิเษก",
    "id_mrtline": 1,
    "mrtline": "เส้นทางรถไฟฟ้ามหานคร สายสีน้ำเงิน",
    "station_co": null,
    "dcode": 1040,
    "dname": "บางแค",
    "lat": 13.7108635,
    "lng": 100.4094434
  },
  {
    "id_station": "PP01",
    "name": "สถานีคลองบางไผ่",
    "location": "ถนนกาญจนาภิเษก บริเวณเยื้องปากซอยบ้านบัวทอง ด้านหน้าอาคารศูนย์ซ่อมบำรุงรถไฟฟ้าและอาคารจอดแล้วจร",
    "id_mrtline": 2,
    "mrtline": "เส้นทางรถไฟฟ้ามหานคร สายสีม่วง",
    "station_co": null,
    "dcode": null,
    "dname": null,
    "lat": 13.89238779,
    "lng": 100.4082208
  },
  {
    "id_station": "PP02",
    "name": "สถานีตลาดบางใหญ่",
    "location": "ถนนกาญจนาภิเษก",
    "id_mrtline": 2,
    "mrtline": "เส้นทางรถไฟฟ้ามหานคร สายสีม่วง",
    "station_co": null,
    "dcode": null,
    "dname": null,
    "lat": 13.88103687,
    "lng": 100.4092903
  },
  {
    "id_station": "PP03",
    "name": "สถานีสามแยกบางใหญ่",
    "location": "ถนนรัตนาธิเบศร์ หมู่ที่ 7 บ้านคลองบางเดื่อ ตำบลเสาธงหิน อำเภอบางใหญ่",
    "id_mrtline": 2,
    "mrtline": "เส้นทางรถไฟฟ้ามหานคร สายสีม่วง",
    "station_co": null,
    "dcode": null,
    "dname": null,
    "lat": 13.87469609,
    "lng": 100.4193558
  },
  {
    "id_station": "PP04",
    "name": "สถานีบางพลู",
    "location": "ถนนรัตนาธิเบศร์ ยกระดับเหนือสะพานข้ามทางแยกบางพลู",
    "id_mrtline": 2,
    "mrtline": "เส้นทางรถไฟฟ้ามหานคร สายสีม่วง",
    "station_co": null,
    "dcode": null,
    "dname": null,
    "lat": 13.87575986,
    "lng": 100.4337962
  },
  {
    "id_station": "PP05",
    "name": "สถานีบางรักใหญ่",
    "location": "ระหว่างทางแยกบางพลูกับทางแยกต่างระดับบางรักน้อย",
    "id_mrtline": 2,
    "mrtline": "เส้นทางรถไฟฟ้ามหานคร สายสีม่วง",
    "station_co": null,
    "dcode": null,
    "dname": null,
    "lat": 13.87660724,
    "lng": 100.4449415
  },
  {
    "id_station": "PP06",
    "name": "สถานีบางรักน้อยท่าอิฐ",
    "location": "ถนนรัตนาธิเบศร์ ใกล้กับทางแยกไทรม้าและอาคารจอดแล้วจรสถานีบางรักน้อยท่าอิฐ",
    "id_mrtline": 2,
    "mrtline": "เส้นทางรถไฟฟ้ามหานคร สายสีม่วง",
    "station_co": null,
    "dcode": null,
    "dname": null,
    "lat": 13.87480634,
    "lng": 100.45595
  },
  {
    "id_station": "PP07",
    "name": "สถานีไทรม้า",
    "location": "ถนนรัตนาธิเบศร์ บริเวณซอยตาหรั่งและหมู่บ้านซื่อตรง รัตนาธิเบศร์",
    "id_mrtline": 2,
    "mrtline": "เส้นทางรถไฟฟ้ามหานคร สายสีม่วง",
    "station_co": null,
    "dcode": null,
    "dname": null,
    "lat": 13.87047546,
    "lng": 100.4667018
  },
  {
    "id_station": "PP08",
    "name": "สถานีสะพานพระนั่งเกล้า",
    "location": "ริมถนนรัตนาธิเบศร์ ใกล้กับทางขึ้นสะพานพระนั่งเกล้าฝั่งตะวันออก",
    "id_mrtline": 2,
    "mrtline": "เส้นทางรถไฟฟ้ามหานคร สายสีม่วง",
    "station_co": null,
    "dcode": null,
    "dname": null,
    "lat": 13.87030425,
    "lng": 100.4801163
  },
  {
    "id_station": "PP09",
    "name": "สถานีแยกนนทบุรี 1",
    "location": "เหนือถนนรัตนาธิเบศร์ บริเวณกลางทางแยกรัตนาธิเบศร์-เลี่ยงเมืองนนทบุรี",
    "id_mrtline": 2,
    "mrtline": "เส้นทางรถไฟฟ้ามหานคร สายสีม่วง",
    "station_co": null,
    "dcode": null,
    "dname": null,
    "lat": 13.86593454,
    "lng": 100.4941053
  },
  {
    "id_station": "PP10",
    "name": "สถานีบางกระสอ",
    "location": "เหนือถนนรัตนาธิเบศร์ บริเวณหน้าโรงเเรมแกรนด์ ริชมอนด์ และห้างสรรพสินค้าบิ๊กซี สาขารัตนาธิเบศร์",
    "id_mrtline": 2,
    "mrtline": "เส้นทางรถไฟฟ้ามหานคร สายสีม่วง",
    "station_co": null,
    "dcode": null,
    "dname": null,
    "lat": 13.86165786,
    "lng": 100.5046064
  },
  {
    "id_station": "PP11",
    "name": "สถานีศูนย์ราชการนนทบุรี",
    "location": "เหนือถนนรัตนาธิเบศร์ หน้าศูนย์ราชการจังหวัดนนทบุรี",
    "id_mrtline": 2,
    "mrtline": "เส้นทางรถไฟฟ้ามหานคร สายสีม่วง",
    "station_co": null,
    "dcode": null,
    "dname": null,
    "lat": 13.86018661,
    "lng": 100.5130529
  },
  {
    "id_station": "PP12",
    "name": "สถานีกระทรวงสาธารณสุข",
    "location": "เหนือถนนติวานนท์บริเวณบริเวณทางแยกศรีธัญญา",
    "id_mrtline": 2,
    "mrtline": "เส้นทางรถไฟฟ้ามหานคร สายสีม่วง",
    "station_co": null,
    "dcode": null,
    "dname": null,
    "lat": 13.8485518,
    "lng": 100.5147168
  },
  {
    "id_station": "PP13",
    "name": "สถานีแยกติวานนท์",
    "location": "เหนือถนนกรุงเทพฯ-นนทบุรี ใกล้ทางแยกติวานนท์",
    "id_mrtline": 2,
    "mrtline": "เส้นทางรถไฟฟ้ามหานคร สายสีม่วง",
    "station_co": null,
    "dcode": null,
    "dname": null,
    "lat": 13.83953803,
    "lng": 100.514973
  },
  {
    "id_station": "PP14",
    "name": "สถานีวงศ์สว่าง",
    "location": "บนถนนกรุงเทพฯ-นนทบุรี ใกล้ สี่เเยกวงศ์สว่าง",
    "id_mrtline": 2,
    "mrtline": "เส้นทางรถไฟฟ้ามหานคร สายสีม่วง",
    "station_co": null,
    "dcode": 1029,
    "dname": "บางซื่อ",
    "lat": 13.82986686,
    "lng": 100.5264918
  },
  {
    "id_station": "PP15",
    "name": "สถานีบางซ่อน",
    "location": "ถนนกรุงเทพ-นนทบุรี ระหว่างซอยกรุงเทพ-นนทบุรี 23 และซอยกรุงเทพ-นนทบุรี 25",
    "id_mrtline": 2,
    "mrtline": "เส้นทางรถไฟฟ้ามหานคร สายสีม่วง",
    "station_co": null,
    "dcode": 1029,
    "dname": "บางซื่อ",
    "lat": 13.82010348,
    "lng": 100.5324499
  },
  {
    "id_station": "PP16",
    "name": "สถานีเตาปูน",
    "location": "แยกเตาปูน (จุดบรรจบระหว่างถนนประชาราษฎร์ สาย 2 กับถนนกรุงเทพ-นนทบุรี)",
    "id_mrtline": 2,
    "mrtline": "เส้นทางรถไฟฟ้ามหานคร สายสีม่วง",
    "station_co": null,
    "dcode": 1029,
    "dname": "บางซื่อ",
    "lat": 13.80614838,
    "lng": 100.5307586
  },
  {
    "id_station": "YL01",
    "name": "สถานีลาดพร้าว",
    "location": "ถนนลาดพร้าว บริเวณทิศตะวันตกของสี่แยกรัชดา-ลาดพร้าว",
    "id_mrtline": 3,
    "mrtline": "เส้นทางรถไฟฟ้ามหานคร สายสีเหลือง",
    "station_co": "สถานีเชื่อมต่อเส้นทางรถไฟฟ้ามหานคร สายสีน้ำเงิน สถานี BL15",
    "dcode": 1030,
    "dname": "จตุจักร",
    "lat": 13.80697302,
    "lng": 100.5747539
  },
  {
    "id_station": "YL02",
    "name": "สถานีภาวนา",
    "location": "ตั้งอยู่บนถนนลาดพร้าว ระหว่างปากซอยลาดพร้าว 41 (ภาวนา) กับปากซอยลาดพร้าว 41/1",
    "id_mrtline": 3,
    "mrtline": "เส้นทางรถไฟฟ้ามหานคร สายสีเหลือง",
    "station_co": null,
    "dcode": 1017,
    "dname": "ห้วยขวาง",
    "lat": 13.80013312,
    "lng": 100.5841789
  },
  {
    "id_station": "YL03",
    "name": "สถานีโชคชัย 4",
    "location": "ถนนลาดพร้าว บริเวณทางแยกโชคชัย 4 (จุดตัดกับถนนโชคชัย 4",
    "id_mrtline": 3,
    "mrtline": "เส้นทางรถไฟฟ้ามหานคร สายสีเหลือง",
    "station_co": null,
    "dcode": 1045,
    "dname": "วังทองหลาง",
    "lat": 13.79423668,
    "lng": 100.5944237
  },
  {
    "id_station": "YL04",
    "name": "สถานีลาดพร้าว 71",
    "location": "ถนนลาดพร้าว บริเวณจุดตัดกับถนนประดิษฐ์มนูธรรม",
    "id_mrtline": 3,
    "mrtline": "เส้นทางรถไฟฟ้ามหานคร สายสีเหลือง",
    "station_co": null,
    "dcode": 1045,
    "dname": "วังทองหลาง",
    "lat": 13.78703755,
    "lng": 100.6075445
  },
  {
    "id_station": "YL05",
    "name": "สถานีลาดพร้าว 83",
    "location": "ถนนลาดพร้าว บริเวณหน้าปากซอยลาดพร้าว 85 (อุทิศ 2) และปากซอยลาดพร้าว 100",
    "id_mrtline": 3,
    "mrtline": "เส้นทางรถไฟฟ้ามหานคร สายสีเหลือง",
    "station_co": null,
    "dcode": 1045,
    "dname": "วังทองหลาง",
    "lat": 13.78367139,
    "lng": 100.6136253
  },
  {
    "id_station": "YL06",
    "name": "สถานีมหาดไทย",
    "location": "ถนนลาดพร้าว บริเวณหน้าปากซอยลาดพร้าว 95 (ปรางค์ทิพย์)",
    "id_mrtline": 3,
    "mrtline": "เส้นทางรถไฟฟ้ามหานคร สายสีเหลือง",
    "station_co": null,
    "dcode": 1045,
    "dname": "วังทองหลาง",
    "lat": 13.77843808,
    "lng": 100.6232072
  },
  {
    "id_station": "YL07",
    "name": "สถานีลาดพร้าว 101",
    "location": null,
    "id_mrtline": 3,
    "mrtline": "เส้นทางรถไฟฟ้ามหานคร สายสีเหลือง",
    "station_co": null,
    "dcode": 1006,
    "dname": "บางกะปิ",
    "lat": 13.77469684,
    "lng": 100.6299138
  },
  {
    "id_station": "YL08",
    "name": "สถานีบางกะปิ",
    "location": "ถนนลาดพร้าว บริเวณหน้าปากซอยลาดพร้าว 115",
    "id_mrtline": 3,
    "mrtline": "เส้นทางรถไฟฟ้ามหานคร สายสีเหลือง",
    "station_co": null,
    "dcode": 1006,
    "dname": "บางกะปิ",
    "lat": 13.76903632,
    "lng": 100.6397694
  },
  {
    "id_station": "YL09",
    "name": "สถานีแยกลำสาลี",
    "location": "ถนนศรีนครินทร์ บริเวณทิศใต้ของทางแยกลำสาลี",
    "id_mrtline": 3,
    "mrtline": "เส้นทางรถไฟฟ้ามหานคร สายสีเหลือง",
    "station_co": "สถานีเชื่อมตอเสนทางเดิน เรือโดยสารคลองแสนแสบ ท่าเดอะมอลล์ บางกะปิ",
    "dcode": 1006,
    "dname": "บางกะปิ",
    "lat": 13.76181247,
    "lng": 100.6454616
  },
  {
    "id_station": "YL10",
    "name": "สถานีศรีกรีฑา",
    "location": "ถนนศรีนครินทร์ บริเวณทิศใต้ของทางแยกต่างระดับกรุงเทพกรีฑา",
    "id_mrtline": 3,
    "mrtline": "เส้นทางรถไฟฟ้ามหานคร สายสีเหลือง",
    "station_co": null,
    "dcode": 1006,
    "dname": "บางกะปิ",
    "lat": 13.75040076,
    "lng": 100.6448085
  },
  {
    "id_station": "YL11",
    "name": "สถานีหัวหมาก",
    "location": null,
    "id_mrtline": 3,
    "mrtline": "เส้นทางรถไฟฟ้ามหานคร สายสีเหลือง",
    "station_co": "สถานีเชื่อมต่อเส้นทางรถไฟฟ้าแอร์พอร์ต เรล ลิงก์ (Airport Rail Link) สถานีหัวหมาก",
    "dcode": 1034,
    "dname": "สวนหลวง",
    "lat": 13.73614434,
    "lng": 100.6410568
  },
  {
    "id_station": "YL12",
    "name": "สถานีกลันตัน",
    "location": "ถนนศรีนครินทร์ บริเวณเชิงสะพานข้ามคลองโคกวัด",
    "id_mrtline": 3,
    "mrtline": "เส้นทางรถไฟฟ้ามหานคร สายสีเหลือง",
    "station_co": null,
    "dcode": 1034,
    "dname": "สวนหลวง",
    "lat": 13.72527482,
    "lng": 100.6417763
  },
  {
    "id_station": "YL13",
    "name": "สถานีศรีนุช",
    "location": "ถนนศรีนครินทร์ ด้านใต้ของทางแยกสวนหลวงหรือทางแยกศรีนุช",
    "id_mrtline": 3,
    "mrtline": "เส้นทางรถไฟฟ้ามหานคร สายสีเหลือง",
    "station_co": null,
    "dcode": 1034,
    "dname": "สวนหลวง",
    "lat": 13.71111235,
    "lng": 100.6442758
  },
  {
    "id_station": "YL14",
    "name": "สถานีศรีนครินทร์ 38",
    "location": "ถนนศรีนครินทร์ บริเวณปากซอยศรีนครินทร์ 38 (หมู่บ้านมิตรภาพ)",
    "id_mrtline": 3,
    "mrtline": "เส้นทางรถไฟฟ้ามหานคร สายสีเหลือง",
    "station_co": null,
    "dcode": 1032,
    "dname": "ประเวศ",
    "lat": 13.70113658,
    "lng": 100.6465176
  },
  {
    "id_station": "YL15",
    "name": "สถานีสวนหลวง ร.9",
    "location": "ถนนศรีนครินทร์ บริเวณปากซอยศรีนครินทร์ 53 (หวังงาม)",
    "id_mrtline": 3,
    "mrtline": "เส้นทางรถไฟฟ้ามหานคร สายสีเหลือง",
    "station_co": null,
    "dcode": 1032,
    "dname": "ประเวศ",
    "lat": 13.69086507,
    "lng": 100.6470192
  },
  {
    "id_station": "YL16",
    "name": "สถานีศรีอุดม",
    "location": "ถนนศรีนครินทร์ บริเวณทางทิศตะวันออกเฉียงใต้ของทางแยกศรีอุดมหรือทางแยกหนองบอน",
    "id_mrtline": 3,
    "mrtline": "เส้นทางรถไฟฟ้ามหานคร สายสีเหลือง",
    "station_co": null,
    "dcode": 1032,
    "dname": "ประเวศ",
    "lat": 13.67664325,
    "lng": 100.6462085
  },
  {
    "id_station": "YL17",
    "name": "สถานีศรีเอี่ยม",
    "location": "ถนนศรีนครินทร์ บริเวณข้างสะพานทางแยกต่างระดับศรีเอี่ยม",
    "id_mrtline": 3,
    "mrtline": "เส้นทางรถไฟฟ้ามหานคร สายสีเหลือง",
    "station_co": null,
    "dcode": 1046,
    "dname": "คลองสามวา",
    "lat": 13.66761207,
    "lng": 100.6450458
  },
  {
    "id_station": "YL18",
    "name": "สถานีศรีลาซาล",
    "location": "ถนนศรีนครินทร์ บริเวณทางใต้ของทางแยกศรีนครินทร์–ลาซาลหรือทางแยกศิครินทร์",
    "id_mrtline": 3,
    "mrtline": "เส้นทางรถไฟฟ้ามหานคร สายสีเหลือง",
    "station_co": null,
    "dcode": 1046,
    "dname": "คลองสามวา",
    "lat": 13.65496793,
    "lng": 100.6421205
  },
  {
    "id_station": "YL19",
    "name": "สถานีศรีแบริ่ง",
    "location": "ถนนศรีนครินทร์ บริเวณปากซอยศรีด่าน 13 ใกล้กับทางแยกศรีแบริ่ง",
    "id_mrtline": 3,
    "mrtline": "เส้นทางรถไฟฟ้ามหานคร สายสีเหลือง",
    "station_co": null,
    "dcode": null,
    "dname": null,
    "lat": 13.64355462,
    "lng": 100.6362095
  },
  {
    "id_station": "YL20",
    "name": "สถานีศรีด่าน",
    "location": "ตำบลสำโรงเหนือ อำเภอเมืองสมุทรปราการ จังหวัดสมุทรปราการ",
    "id_mrtline": 3,
    "mrtline": "เส้นทางรถไฟฟ้ามหานคร สายสีเหลือง",
    "station_co": null,
    "dcode": null,
    "dname": null,
    "lat": 13.63320965,
    "lng": 100.6300014
  },
  {
    "id_station": "YL21",
    "name": "สถานีศรีเทพา",
    "location": "หมู่ที่ 3 บ้านทิพวัล ตำบลเทพารักษ์ อำเภอเมืองสมุทรปราการ จังหวัดสมุทรปราการ",
    "id_mrtline": 3,
    "mrtline": "เส้นทางรถไฟฟ้ามหานคร สายสีเหลือง",
    "station_co": null,
    "dcode": null,
    "dname": null,
    "lat": 13.62994906,
    "lng": 100.6227147
  },
  {
    "id_station": "YL22",
    "name": "สถานีทิพวัล",
    "location": "หมู่ที่ 3 บ้านทิพวัล ตำบลเทพารักษ์ อำเภอเมืองสมุทรปราการ จังหวัดสมุทรปราการ",
    "id_mrtline": 3,
    "mrtline": "เส้นทางรถไฟฟ้ามหานคร สายสีเหลือง",
    "station_co": null,
    "dcode": null,
    "dname": null,
    "lat": 13.63677534,
    "lng": 100.6099328
  },
  {
    "id_station": "YL23",
    "name": "สถานีสำโรง",
    "location": "พื้นที่ตำบลเทพารักษ์ อำเภอเมืองสมุทรปราการ จังหวัดสมุทรปราการ",
    "id_mrtline": 3,
    "mrtline": "เส้นทางรถไฟฟ้ามหานคร สายสีเหลือง",
    "station_co": "สถานีเชื่อมต่อเส้นทางเส้นทางรถไฟฟ้าบีทีเอส สายสุขุมวิท (สีเขียวอ่อน)สถานี E15",
    "dcode": null,
    "dname": null,
    "lat": 13.64500554,
    "lng": 100.5966143
  }
]